{"type":"170100","poi":[{"cp":[116.4136900772897,39.91462735271456],"name":"佳能(中国)有限公司","district":"东城区","address":"金宝街89号金宝大厦2层、7层、15- 17层","business_area":"东单","id":"B000A7PHLK"},{"business_area":"东四","name":"中国海洋石油总公司","district":"东城区","coordinates":[[116.42589190362035,39.924560706052446],[116.42692672918363,39.92455208647848],[116.4270068756553,39.92453019615434],[116.42720431080237,39.923902490965965],[116.42723137542808,39.92377853306328],[116.42723439688712,39.92365254235899],[116.42726646807031,39.92354859053234],[116.42726248562907,39.92335359306993],[116.42720639100128,39.92330051847557],[116.42601327580893,39.923291917510376],[116.42586000784782,39.923304715663676],[116.42581692457814,39.923372656466675],[116.42583582023623,39.924451637017945],[116.42589190362035,39.924560706052446]],"address":"朝阳门北大街25号中国海洋石油办公楼","cp":[116.42650105425389,39.92390253985241],"id":"B000A7XLH1"},{"cp":[116.43967456311998,39.941793004656105],"name":"中国海油","district":"东城区","address":"东直门外小街6号海油大厦","business_area":"东四","id":"B000A7XMMO"},{"cp":[116.40444016536158,39.96578503761147],"name":"英特尔(中国)有限公司","district":"东城区","address":"北三环东路36号环球贸易中心1802-10、19层、20层","business_area":"安定门","id":"B000A87KO2"},{"cp":[116.42949874915743,39.930548469027194],"name":"北京首都创业集团有限公司","district":"东城区","address":"朝阳门北大街6号首创大厦15层","business_area":"东四","id":"B000A7RPJ0"},{"cp":[116.42378146368694,39.90801372687464],"name":"宏达通讯有限公司(HTC)","district":"东城区","address":"建国门内大街7光华长安大厦1座17层1701-1708","business_area":"建国门","id":"B000A88AGX"},{"cp":[116.43318776178974,39.88673004328888],"name":"中国医药健康产业股份有限公司(光明中街)","district":"东城区","address":"光明中街18号美康大厦","business_area":"[]","id":"B000A812DK"},{"cp":[116.4166273143516,39.907710120894386],"name":"中国中纺集团公司","district":"东城区","address":"建国门内大街19号中纺大厦5层","business_area":"东单","id":"B0FFH5B4GN"},{"cp":[116.42407191930964,39.908151077437196],"name":"邦基国际贸易(上海)有限公司北京分公司","district":"东城区","address":"建国门内大街7光华长安大厦18层1821","business_area":"建国门","id":"B000A7W9GG"},{"cp":[116.41767857415715,39.92389741929867],"name":"中钢物业管理有限公司","district":"东城区","address":"朝阳门内大街199号华富商贸大楼A座103","business_area":"东四","id":"B000A7R9OG"},{"cp":[116.42771980915008,39.9116087139675],"name":"华润雪花啤酒(中国)有限公司","district":"东城区","address":"建国门北大街8号华润大厦","business_area":"建国门","id":"B000A7BHZT"},{"cp":[116.45358378892733,39.91749739111828],"name":"美国联合技术国际公司北京办事处","district":"朝阳区","address":"东三环中路1号渣打大厦14层1414-1416","business_area":"建国门","id":"B000AA0AWG"},{"cp":[116.4037688222597,39.96574980652131],"name":"高通无线通信技术(中国)有限公司","district":"东城区","address":"北三环东路36号环球贸易中心C栋601","business_area":"安贞","id":"B000A7KAT2"},{"cp":[116.4156338423972,39.94919454933652],"name":"诺基亚体验创新中心","district":"东城区","address":"和平东路11号雍和航星园1号楼","business_area":"和平里","id":"B000A8ZIAE"},{"cp":[116.42407191930964,39.908151077437196],"name":"西班牙对外银行有限公司北京代表处","district":"东城区","address":"建国门内大街7光华长安大厦6层618","business_area":"建国门","id":"B000A7ZULE"},{"business_area":"金融街","name":"中国大唐集团公司","district":"西城区","coordinates":[[116.35495449883602,39.9127884200024],[116.35705378113701,39.91285332577264],[116.35716657748178,39.91291916011494],[116.35739411909837,39.91343581062417],[116.35739111625418,39.9134988122559],[116.35733221277114,39.91353789524026],[116.3549414301757,39.91351340871109],[116.35486656924454,39.91348052245993],[116.3548346307809,39.91344957175244],[116.35487463849238,39.912821538420864],[116.35495449883602,39.9127884200024]],"address":"广宁伯街1号","cp":[116.35605648414119,39.91318076625548],"id":"B000A843ZE"},{"cp":[116.28093664603614,39.81881953643774],"name":"中国大唐(六圈西路)","district":"丰台区","address":"南四环西路188号十二区20","business_area":"金融街","id":"B000A7OR40"},{"business_area":"西直门","name":"中材集团","district":"西城区","coordinates":[[116.35183348642346,39.94249600088028],[116.35193431411118,39.94235084802526],[116.35198822775077,39.942228768160845],[116.35188742315053,39.94219092814741],[116.35163990373998,39.94210132184365],[116.35127760992829,39.941972900508375],[116.35080453327747,39.941838659243544],[116.35064284808037,39.941809919021615],[116.35056697473058,39.94196403444249],[116.35062884529081,39.94204393211608],[116.35089731131407,39.94218249738843],[116.35119772129987,39.94229701445833],[116.35183348642346,39.94249600088028]],"address":"西直门内北顺城街11号","cp":[116.35115880409562,39.9422310789431],"id":"B0FFFLIN9B"},{"cp":[116.4686607009386,40.00963505182143],"name":"中材集团财务有限公司","district":"朝阳区","address":"望京开发街道望京北路16号中材国际大厦2层","business_area":"西直门","id":"B000AA9IVE"},{"cp":[116.35276369255749,39.919264490864286],"name":"华为终端有限公司","district":"西城区","address":"金融大街5号新盛大厦","business_area":"金融街","id":"B000A875QD"},{"cp":[116.45380521439455,39.95120355959451],"name":"中国远洋运输集团总公司","district":"朝阳区","address":"东三环北路3号中远幸福大厦A座","business_area":"复兴门","id":"B000A7YNI9"},{"cp":[116.3647350690791,39.90839924749482],"name":"中国铁路物资总公司","district":"西城区","address":"金融街街道华远街11号置地星座E座","business_area":"[]","id":"B000A7S9CP"},{"business_area":"德胜门","name":"中国交通建设股份有限公司","district":"西城区","coordinates":[[116.37131272356757,39.952693102888006],[116.37270012375693,39.9526977439218],[116.37272117102857,39.95214274577687],[116.37171132655224,39.95213572758593],[116.37132078616659,39.95212811713586],[116.37125386312583,39.95214618366],[116.37124780022191,39.9526951680517],[116.37131272356757,39.952693102888006]],"address":"德胜门外大街85号德胜国际中心A座","cp":[116.37197898039355,39.95241545285686],"id":"B000A85487"},{"cp":[116.41149439360348,39.7609209057618],"name":"中国交通建设股份有限公司生产供应基地","district":"大兴区","address":"顺新街12号","business_area":"德胜门","id":"B0FFF581C9"},{"cp":[116.35684660541993,39.901337127475244],"name":"中国信达资产管理股份有限公司(闹市口大街)","district":"西城区","address":"闹市口大街9号院1号楼","business_area":"复兴门","id":"B000A8U9NO"},{"cp":[116.35164781901689,39.919060246804946],"name":"高盛高华证券有限责任公司","district":"西城区","address":"金融大街7号英蓝国际金融中心17层","business_area":"金融街","id":"B000A8X6FS"},{"cp":[116.3539936294495,39.91761266816126],"name":"中国华融资产管理股份有限公司(武定侯街)","district":"西城区","address":"金融大街8号华融大厦","business_area":"金融街","id":"B000A3382D"},{"cp":[116.37215768386908,39.95312825004272],"name":"北京联成开拓高新技术有限公司","district":"西城区","address":"德胜门外大街83号德胜国际中心B座16层","business_area":"德胜门","id":"B000A8U64Q"},{"cp":[116.35753049657166,39.916485485875405],"name":"中国光大集团","district":"西城区","address":"太平桥大街25号中国光大中心A座13层","business_area":"金融街","id":"B0FFG4JA7D"},{"cp":[116.35441582359881,39.91003134957041],"name":"中国电力投资集团公司","district":"西城区","address":"金融大街28号院3号楼","business_area":"复兴门","id":"B0FFGRDEI6"},{"cp":[116.3564644316227,39.915814056482354],"name":"金融街控股股份有限公司","district":"西城区","address":"金城坊街1号金融街公寓D座","business_area":"金融街","id":"B0FFIP7BZF"},{"cp":[116.35597483709138,39.903675298476486],"name":"中国核能电力股份有限公司","district":"西城区","address":"西长安街街道闹市口大街1号院长安兴融中心4号楼12层","business_area":"月坛","id":"B0FFHDL681"},{"cp":[116.33208967269434,39.930585104683566],"name":"中国核工业建设股份有限公司","district":"西城区","address":"车公庄大街12号","business_area":"三里河","id":"B0FFG7341D"},{"cp":[116.28309397212684,39.82279637891742],"name":"中国诚通(丰茂路)","district":"丰台区","address":"南四环西路188号六区18号楼","business_area":"[]","id":"B000A7RAN2"},{"cp":[116.28228516582536,39.82294646248247],"name":"中储发展股份有限公司","district":"丰台区","address":"南四环西路188号六区5","business_area":"[]","id":"B000A867J6"},{"cp":[116.28245574268249,39.82430913910658],"name":"建龙集团","district":"丰台区","address":"南四环西路188号二区4号","business_area":"[]","id":"B000A7PJC8"},{"cp":[116.30167485791783,39.826642721760855],"name":"中国铁路通信信号股份有限公司(汽车博物馆南路)","district":"丰台区","address":"汽车博物馆南路1号","business_area":"[]","id":"B0FFG2M4C8"},{"cp":[116.4823932030385,40.00565921674117],"name":"施耐德电气","district":"朝阳区","address":"望京东路6号望京国际研发园","business_area":"望京","id":"B000A856YJ"},{"business_area":"三里屯","name":"大众汽车集团(中国)","district":"朝阳区","coordinates":[[116.44766724800122,39.94369802241822],[116.44768336755273,39.94310808039981],[116.4486781698033,39.94309424052792],[116.44865404015945,39.94357916863501],[116.44822081287765,39.94360322349298],[116.44821879469175,39.94370221520701],[116.44766724800122,39.94369802241822]],"address":"三里屯路西六街甲3号院2号楼","cp":[116.44814763516516,39.94337907346084],"id":"B000A7HATL"},{"cp":[116.44782575368781,39.943204383671514],"name":"大众汽车集团中国停车场(西出入口)","district":"朝阳区","address":"三里屯西六街5号附近","business_area":"三里屯","id":"B0FFGX8TYO"},{"cp":[116.47562472133318,39.99304918925822],"name":"梅赛德斯-奔驰(中国)汽车销售有限公司","district":"朝阳区","address":"望京街8号利星行广场A座戴姆勒大厦1层","business_area":"望京","id":"B000A88CA9"},{"cp":[116.45726342066769,39.95533669957649],"name":"中国航空集团公司","district":"朝阳区","address":"霄云路36国航大厦25-28层","business_area":"亮马桥","id":"B000A853C0"},{"cp":[116.4489817464023,39.91365809960991],"name":"松下电器(中国)有限公司","district":"朝阳区","address":"景华南街5号远洋·光华国际C座5层","business_area":"国贸","id":"B000A87K18"},{"business_area":"德胜门","name":"中国中煤能源集团公司","district":"朝阳区","coordinates":[[116.38754948173873,39.96243736754031],[116.387581551082,39.961796380867554],[116.38692282396708,39.96177163768098],[116.38690075924838,39.96235162361263],[116.3869007555426,39.96238062246639],[116.38695472830818,39.962413599470615],[116.38754948173873,39.96243736754031]],"address":"黄寺大街1号中煤大厦","cp":[116.38723864950774,39.96210249967505],"id":"B000A123BE"},{"cp":[116.40223235163018,39.95612973025482],"name":"中国中煤能源集团","district":"东城区","address":"安定门外大街乙88号中煤大厦12层华利能源公司","business_area":"德胜门","id":"B000A98928"},{"cp":[116.45706906716094,39.905567243447074],"name":"三星电子(东三环中路辅路)","district":"朝阳区","address":"建国路乙118号京汇大厦","business_area":"国贸","id":"B000A7BMWB"},{"cp":[116.45931484098716,39.94851105163302],"name":"德国电信","district":"朝阳区","address":"亮马桥路50北京燕莎中心2层C213","business_area":"燕莎","id":"B000A7WEK1"},{"cp":[116.45931484098716,39.94851105163302],"name":"德国汉莎航空公司","district":"朝阳区","address":"亮马桥路50北京燕莎中心1层S101","business_area":"亮马桥","id":"B000A7K0DG"},{"cp":[116.45827982803387,39.90623319498025],"name":"中国惠普有限公司","district":"朝阳区","address":"建国路112号中国惠普大厦8-18层","business_area":"国贸","id":"B000A7BL68"},{"cp":[116.40205104575948,39.97359899101462],"name":"中国有色集团","district":"朝阳区","address":"安定路10号中国有色大厦北楼","business_area":"安贞","id":"B000A8548B"},{"cp":[116.45210286121228,39.90546046631574],"name":"福特汽车(中国)有限公司","district":"朝阳区","address":"建国门外大街2号银泰写字楼4901","business_area":"建外大街","id":"B000A87KQM"},{"business_area":"亮马桥","name":"北京现代汽车有限公司销售本部","district":"朝阳区","coordinates":[[116.45568454367198,39.9547478892228],[116.45637261310316,39.95536252699901],[116.45692439404678,39.95498788414273],[116.45695855991927,39.95452598564989],[116.45697963164777,39.95448403875137],[116.45700571794941,39.95445210372358],[116.45701575338362,39.95442212941672],[116.45700974159688,39.954365116962414],[116.45698968160005,39.954339068978726],[116.45676700602488,39.95413353382237],[116.45673691262847,39.954123460912584],[116.45670481118793,39.954127382591274],[116.45568454367198,39.9547478892228]],"address":"霄云路38号现代汽车大厦6、7、11层","cp":[116.45648405229048,39.954648825397314],"id":"B000A54025"},{"cp":[116.45676492138632,39.95475350444959],"name":"北京现代汽车有限公司规划本部","district":"朝阳区","address":"霄云路38号现代汽车大厦7层702","business_area":"亮马桥","id":"B0FFG4ENA0"},{"cp":[116.45831012364914,39.94442770756104],"name":"斯巴鲁汽车(中国)有限公司","district":"朝阳区","address":"东三环北路8号亮马河大厦","business_area":"麦子店","id":"B000A84CW8"},{"cp":[116.44859252367512,39.94628892749579],"name":"中国中信集团公司","district":"朝阳区","address":"新源南路6号京城大厦","business_area":"左家庄","id":"B000A7MVD6"},{"cp":[116.43212310067112,39.90597447615474],"name":"日本生命保险相互会社","district":"朝阳区","address":"建国门外大街甲26号长富宫办公楼4层","business_area":"建国门","id":"B000A7Q7RI"},{"cp":[116.45244457913617,39.93165916369942],"name":"波音","district":"朝阳区","address":"工人体育场北路甲2号盈科中心","business_area":"[]","id":"B000A886T0"},{"cp":[116.45030613846941,39.90901023606153],"name":"丰田汽车(中国)投资有限公司","district":"朝阳区","address":"光华东里8号中海广场南楼20层2001","business_area":"建国门","id":"B000A8W2F0"},{"cp":[116.47568697071861,39.992872373881426],"name":"戴姆勒·克莱斯勒(中国)投资有限公司","district":"朝阳区","address":"望京街8号利星行广场A座戴姆勒大厦A座内","business_area":"望京","id":"B000A87KD7"},{"cp":[116.45441967349984,39.914796473023436],"name":"安赛乐米塔尔","district":"朝阳区","address":"东三环中路7号-4北京财富中心写字楼A座3801","business_area":"国贸","id":"B000A7ZNBA"},{"cp":[116.45436204204658,39.950172913089744],"name":"电装(中国)投资有限公司","district":"朝阳区","address":"东三环北路5号北京发展大厦5层518","business_area":"燕莎","id":"B000A8UTAG"},{"cp":[116.45413291537191,39.91386083452273],"name":"北京住总集团(住总大厦)","district":"朝阳区","address":"东三环中路25号住总大厦","business_area":"北辰","id":"B000A7YO3V"},{"cp":[116.45441111323473,39.919040275791794],"name":"拜耳(中国)有限公司北京分公司","district":"朝阳区","address":"朝阳门外大街1号京广中心34层3406-08","business_area":"呼家楼","id":"B000A7BLTK"},{"cp":[116.4510584209931,39.95588803737232],"name":"拉法基瑞安水泥","district":"朝阳区","address":"东三环北路2号南银大厦B座29层","business_area":"[]","id":"B000A7PSEZ"},{"cp":[116.47568697071861,39.992872373881426],"name":"戴姆勒大中华区投资有限公司","district":"朝阳区","address":"望京街8号利星行广场A座戴姆勒大厦内","business_area":"望京","id":"B000A88CAA"},{"cp":[116.47698469000511,39.99313907031796],"name":"梅赛德斯-奔驰汽车金融有限公司","district":"朝阳区","address":"望京街8号利星行广场C座","business_area":"望京","id":"B000A88CAB"},{"cp":[116.43212310067112,39.90597447615474],"name":"三菱重工业(中国)有限公司","district":"朝阳区","address":"建国门外大街甲26号长富宫办公楼","business_area":"建国门","id":"B000A7Q9D4"},{"cp":[116.43212310067112,39.90597447615474],"name":"第一生命保险相互会社","district":"朝阳区","address":"建国门外大街甲26号长富宫办公楼3层","business_area":"建外大街","id":"B000A7OTMS"},{"cp":[116.46032295869685,39.95771723084286],"name":"霍尼韦尔(中国)公司北京办事处","district":"朝阳区","address":"霄云路26号鹏润大厦B座17","business_area":"亮马桥","id":"B000A7PGEY"},{"cp":[116.45244457913617,39.93165916369942],"name":"三菱电机(中国)有限公司","district":"朝阳区","address":"工人体育场北路甲2号盈科中心A座1507室","business_area":"[]","id":"B000A88700"},{"cp":[116.45707879576672,39.907971163343944],"name":"中国恒天集团有限公司","district":"朝阳区","address":"建国路99号中服大厦","business_area":"国贸","id":"B0FFH77MNA"},{"cp":[116.45292105369491,39.93128228211113],"name":"富士通(中国)有限公司","district":"朝阳区","address":"工体北路甲2号盈科中心捌坊6号3层308单元","business_area":"[]","id":"B0FFIS4C8L"},{"cp":[116.45244457913617,39.93165916369942],"name":"Research in Motion Limited(Blackberry)","district":"朝阳区","address":"工人体育场北路甲2号盈科中心14层","business_area":"[]","id":"B000A8U4O6"},{"cp":[116.47514198404743,39.98487915399349],"name":"索尼移动通信产品(中国)有限公司","district":"朝阳区","address":"广顺南大街16号院1号索尼移动通信大厦","business_area":"望京","id":"B0FFG72WFH"},{"cp":[116.45386631061338,39.95984436445163],"name":"北京三星通信技术研究有限公司","district":"朝阳区","address":"霞光里9号中电发展大厦A座10、11层","business_area":"[]","id":"B0FFGE4A49"},{"cp":[116.44848444437856,39.91279604732744],"name":"神龙汽车有限公司北京东风标致分公司","district":"朝阳区","address":"光华路7号汉威大厦5B1、20层","business_area":"国贸","id":"B0FFG01ZFN"},{"cp":[116.45441967349984,39.914796473023436],"name":"中国新兴铸管集团","district":"朝阳区","address":"东三环中路7号-4北京财富中心写字楼A座2700","business_area":"国贸","id":"B000A7ZWN4"},{"cp":[116.47292065991202,39.987133793184135],"name":"北京艾迪菲导航科技有限公司","district":"朝阳区","address":"阜通东大街10号宝能中心B座12层","business_area":"望京","id":"B000A8UTAN"},{"cp":[116.44815967535749,39.94332910155825],"name":"大众汽车(中国)投资有限公司","district":"朝阳区","address":"三里屯路西六街甲3号院2号楼","business_area":"三里屯","id":"B0FFIQWFC7"},{"cp":[116.45647601461629,39.954747802001854],"name":"现代汽车(中国)投资有限公司","district":"朝阳区","address":"霄云路38号现代汽车大厦23层2301","business_area":"亮马桥","id":"B0FFHF5HYJ"},{"cp":[116.40172701951762,39.97280894253671],"name":"中国有色金属建设股份有限公司","district":"朝阳区","address":"安定路10号中国有色大厦南楼","business_area":"安贞","id":"B000A85F7H"},{"cp":[116.45253383967389,39.95550142823374],"name":"宝马(中国)汽车贸易有限公司","district":"朝阳区","address":"东三环北路霞光里18号佳程广场B座28层","business_area":"[]","id":"B0FFHGJ0Z5"},{"cp":[116.45302064802253,39.91306026251277],"name":"日产(中国)投资有限公司(NCIC)","district":"朝阳区","address":"北京市朝阳区嘉里中心","business_area":"国贸","id":"B0FFIS82DJ"},{"cp":[116.47488260760801,39.9883352763543],"name":"北京协进科技发展有限公司","district":"朝阳区","address":"望京阜通东大街方恒国际中心A座29层","business_area":"望京","id":"B000A95D2N"},{"cp":[116.45735868654626,39.955619922034145],"name":"歌乐东方电子有限公司北京办事处","district":"朝阳区","address":"霄云路36号国航大厦11层","business_area":"亮马桥","id":"B0FFI9N9QG"},{"cp":[116.44843933016082,39.91269095341517],"name":"阿尔派电子(中国)有限公司","district":"朝阳区","address":"光华路7号汉威大厦28层28A","business_area":"国贸","id":"B0FFJ44OUQ"},{"cp":[116.4581953087054,39.94798728316959],"name":"富士通天国际贸易(天津)有限公司北京分公司","district":"朝阳区","address":"亮马桥路50号北京燕莎中心凯宾斯基饭店写字间C418","business_area":"燕莎","id":"B0FFGE4C3H"},{"cp":[116.45449940448806,39.95063422034027],"name":"本田技研工业(中国)投资有限公司","district":"朝阳区","address":"东三环北路5号北京发展大厦301室","business_area":"燕莎","id":"B0FFHG81DP"},{"cp":[116.4622607518751,39.94653162533202],"name":"长虹佳华信息产品有限责任公司","district":"朝阳区","address":"麦子店街36龙宝大厦4层411-416","business_area":"麦子店","id":"B000A7OMOH"},{"cp":[116.45269010080015,39.917470310485946],"name":"一汽丰田汽车销售有限公司(FTMS)","district":"朝阳区","address":"东三环中路1号环球金融中心西楼3层-4层","business_area":"呼家楼","id":"B000A83CKL"},{"cp":[116.48349840322275,39.957108439642155],"name":"北京宝信行汽车销售服务有限公司","district":"朝阳区","address":"将台乡安家楼西十里67号","business_area":"[]","id":"B0FFG9W56J"},{"cp":[116.49363042580674,39.98390445097184],"name":"奥迪(中国)企业管理有限公司","district":"朝阳区","address":"酒仙桥路4号751北京时尚设计广场B6","business_area":"酒仙桥","id":"B000A9EUYY"},{"cp":[116.46032295869685,39.95771723084286],"name":"北京国美电器有限公司","district":"朝阳区","address":"霄云路26号鹏润大厦B座808-10、1001、11层、1201、1205-1206、1209-1211","business_area":"亮马桥","id":"B0FFFRL08K"},{"cp":[116.42750643363914,39.95872452113762],"name":"博泰悦臻网络技术服务有限公司(柳芳北街)","district":"朝阳区","address":"西坝河南路1号金泰大厦26层2608","business_area":"和平里","id":"B000A8ZINU"},{"cp":[116.45231077289296,39.911075703310814],"name":"中国忠旺控股有限公司","district":"朝阳区","address":"建国门外大街1号国贸大厦42层","business_area":"建外大街","id":"B0FFG2MDRI"},{"cp":[116.45931484098716,39.94851105163302],"name":"出光能源咨询(北京)有限公司","district":"朝阳区","address":"亮马桥路50北京燕莎中心6层C602","business_area":"亮马桥","id":"B000A7JX6O"},{"cp":[116.48446003090753,39.97306564096903],"name":"北京佳明航电科技有限公司","district":"朝阳区","address":"酒仙桥路14号兆维大厦2层北201室","business_area":"酒仙桥","id":"B0FFF3NI24"},{"cp":[116.48527193867234,39.982307665145704],"name":"联发博动科技(北京)有限公司","district":"朝阳区","address":"酒仙桥路6号院1号楼B区","business_area":"酒仙桥","id":"B000A9VZGJ"},{"cp":[116.47200502815221,39.88594440661461],"name":"中国能源建设集团有限公司","district":"朝阳区","address":"西大望路26号院","business_area":"南磨房","id":"B0FFGYMDFV"},{"cp":[116.4458914410869,39.958828657420305],"name":"中国冶金科工股份有限公司","district":"朝阳区","address":"曙光西里28号,中冶大厦","business_area":"太阳宫村","id":"B0FFH7TRRA"},{"cp":[116.48464037222556,39.96774838312677],"name":"梅赛德斯-奔驰租赁有限公司","district":"朝阳区","address":"酒仙桥路20号颐堤港1座19层","business_area":"酒仙桥","id":"B0FFH97XCX"},{"cp":[116.47655721708118,39.992373878338846],"name":"戴姆勒卡客车(中国)有限公司","district":"朝阳区","address":"望京街8号卡特彼勒大厦B座5层","business_area":"望京","id":"B0FFI9O10J"},{"cp":[116.47568697071861,39.992872373881426],"name":"戴姆勒大中华区投资有限公司","district":"朝阳区","address":"望京街8号利星行广场A座戴姆勒大厦内","business_area":"望京","id":"B000A88CAA"},{"cp":[116.42388672761125,39.96233366150412],"name":"天地科技股份有限公司(安科大厦西)","district":"朝阳区","address":"青年沟路5安科大厦231-236","business_area":"和平里","id":"B0FFHE1WHE"},{"cp":[116.49036762667184,39.98717458781716],"name":"百度在线网络技术(北京)有限公司","district":"朝阳区","address":"酒仙桥北路9号恒通国际创新园C12","business_area":"大山子","id":"B0FFFVIO58"},{"cp":[116.45101233940183,39.93168388891388],"name":"北汽乘用车分公司北京基地","district":"朝阳区","address":"工人体育场北路4凯富大厦7层716室","business_area":"[]","id":"B000A8U52H"},{"cp":[116.48474577723661,39.967683696470466],"name":"戴姆勒东北亚零部件贸易服务有限公司","district":"朝阳区","address":"酒仙桥路20号颐提港1座16-17层","business_area":"酒仙桥","id":"B0FFFRRB4F"},{"cp":[116.43759814722517,39.976970819527786],"name":"北京京能清洁能源电力股份有限公司","district":"朝阳区","address":"西坝河路6号","business_area":"太阳宫村","id":"B0FFH0GWWZ"},{"cp":[116.47569398858015,39.99293439127537],"name":"北京梅赛德斯-奔驰销售服务有限公司","district":"朝阳区","address":"望京街8号院戴姆勒大厦","business_area":"望京","id":"B0FFH13OOE"},{"cp":[116.45157618513706,39.961906978054415],"name":"哈曼(中国)投资有限公司北京咨询分公司","district":"朝阳区","address":"曙光西里甲5号凤凰置地广场H座写字楼1107室","business_area":"太阳宫村","id":"B0FFHOC5QM"},{"cp":[116.45365637806921,39.95425309065456],"name":"爱导(上海)汽车零部件贸易有限公司北京分公司","district":"朝阳区","address":"东三环北路丙2号天元港中心A座2706室","business_area":"[]","id":"B000A9IR61"},{"cp":[116.4510584209931,39.95588803737232],"name":"洛克希德马丁全球有限公司北京代表处","district":"朝阳区","address":"东三环北路2号南银大厦B座2709","business_area":"[]","id":"B000A7C6GI"},{"cp":[116.45931484098716,39.94851105163302],"name":"德国豪赫帝夫有限公司","district":"朝阳区","address":"亮马桥路50北京燕莎中心3层C315","business_area":"亮马桥","id":"B000A7WEKB"},{"cp":[116.50160387470885,39.98150228040743],"name":"华旗移动科技(北京)有限公司","district":"朝阳区","address":"酒仙桥北路甲10号院-402德信大厦B座4层401室","business_area":"酒仙桥","id":"B000A88AD2"},{"cp":[116.1762560887636,40.05247122171149],"name":"华为数字技术有限公司(南区)","district":"海淀区","address":"北清路156号中关村环保科技示范园内","business_area":"[]","id":"B000A8VPHI"},{"cp":[116.30026245012014,39.98057687776957],"name":"腾讯科技(苏州街)","district":"海淀区","address":"海淀大街38银科大厦16层","business_area":"[]","id":"B000A7LZ8F"},{"cp":[116.30559167458635,39.97769049682281],"name":"中国机械工业集团公司","district":"海淀区","address":"丹棱街3中国电子大厦19-25层","business_area":"中关村","id":"B000A26EF6"},{"cp":[116.35153589335584,39.9437364210661],"name":"中国铝业集团有限公司","district":"海淀区","address":"西直门北大街62号中国铝业大厦","business_area":"西直门","id":"B000A7RBVR"},{"business_area":"[]","name":"北大方正集团有限公司","district":"海淀区","coordinates":[[116.31072880636304,39.990765462167936],[116.31000142243985,39.990737824371124],[116.30992360159293,39.99068197204004],[116.30994759559945,39.99030894286787],[116.31006549012457,39.98907777411662],[116.31015928945563,39.989022601121476],[116.31041671781813,39.98903211921489],[116.31067614049776,39.989044632848525],[116.31061720473835,39.98957272122727],[116.31059026240136,39.98958977098602],[116.31056331061288,39.98968181762169],[116.31054432901621,39.98986984531031],[116.3106440965809,39.98995665479284],[116.31070794607723,39.99002553226088],[116.31076181567674,39.99011042773182],[116.31075880633786,39.990237428057185],[116.31074282241826,39.99039145157054],[116.31072880636304,39.990765462167936]],"address":"成府路298号方正大厦9层","cp":[116.31015122518039,39.98967358901366],"id":"B000A7RLBZ"},{"cp":[116.3009346643553,40.03943402088087],"name":"方正集团","district":"海淀区","address":"","business_area":"[]","id":"B000A81CAK"},{"cp":[116.27038643797677,39.93215670958845],"name":"物美商业","district":"海淀区","address":"西四环北路158号(慧科大厦)西楼1层","business_area":"[]","id":"B000A83Q0P"},{"cp":[116.29202912263662,40.0459495703905],"name":"汉王科技股份有限公司","district":"海淀区","address":"中关村软件园5号楼中关村软件科技园5号汉王大厦","business_area":"西北旺","id":"B000A889OZ"},{"cp":[116.34023102611313,39.97469834643602],"name":"中国医药集团总公司","district":"海淀区","address":"知春路20中国医药大厦9-10层","business_area":"[]","id":"B000A85488"},{"cp":[116.30419960432081,39.97796500580617],"name":"微软亚太研发集团总部1号楼","district":"海淀区","address":"丹棱街5号","business_area":"中关村","id":"B000A8WC5S"},{"cp":[116.30566991335134,39.98240316240235],"name":"中国普天信息产业股份有限公司","district":"海淀区","address":"海淀北二街6号中国普天大厦","business_area":"中关村","id":"B000A7RRJ5"},{"cp":[116.34565790688164,39.956470580199046],"name":"中国华能置业有限公司","district":"海淀区","address":"学院南路40号院","business_area":"西直门","id":"B0FFH1U8ZE"},{"cp":[116.30146878504601,40.04562275194802],"name":"北京畅易行科技有限公司","district":"海淀区","address":"上地七街1号汇众科技大厦2号楼7层","business_area":"上地","id":"B0FFGE4TS3"},{"cp":[116.35142508809767,39.94386359136523],"name":"中国铝业大厦(德胜门西大街)","district":"海淀区","address":"西直门北大街62号","business_area":"西直门","id":"B000A8128S"},{"cp":[116.32028007378575,39.983402576085055],"name":"谷歌","district":"海淀区","address":"融科资讯中心B座","business_area":"[]","id":"B0FFH59U3E"},{"cp":[116.17872335327031,40.05654646819438],"name":"华为数字技术有限公司北区","district":"海淀区","address":"北清路156号中关村环保科技示范园内","business_area":"[]","id":"B000A8VTZW"},{"cp":[116.30375055012738,40.041450917815],"name":"联想北京有限公司","district":"海淀区","address":"创业路6号联想大厦","business_area":"上地","id":"B000A88ACW"},{"cp":[116.2959647355641,40.053946727330434],"name":"百度(鹏寰国际大厦)","district":"海淀区","address":"上地街道上地东路1号盈创动力园区D座","business_area":"上地","id":"B000ABBXTR"},{"cp":[116.31687655044752,39.98595400293239],"name":"北京中科普惠科技发展有限公司","district":"海淀区","address":"北四环西路33号中国科学院文献情报中心大楼6D","business_area":"[]","id":"B000A8501T"},{"cp":[116.3308088530176,39.97578771882526],"name":"腾讯视频(西五道口)","district":"海淀区","address":"知春路49号希格玛大厦1-6层","business_area":"[]","id":"B0FFF3YS8B"},{"cp":[116.30746341385266,39.90790990061056],"name":"中国中材股份有限公司","district":"海淀区","address":"复兴路17号国海广场B座8层","business_area":"公主坟","id":"B0FFHIF8FB"},{"cp":[116.32024714921708,39.98340463931422],"name":"联想控股有限公司","district":"海淀区","address":"科学院南路2号融科资讯中心B座17层","business_area":"[]","id":"B0FFFPH1J9"},{"cp":[116.29751444669681,39.98457743610495],"name":"小鹏汽车","district":"海淀区","address":"北四环西路67号中关村国际创新大厦16层","business_area":"万泉河","id":"B0FFJC96GX"},{"cp":[116.30378878507084,39.97547884515738],"name":"北京恒天兴业科技发展有限公司","district":"海淀区","address":"海淀南路21号中关村知识产权大厦B座","business_area":"[]","id":"B000A7GK4E"},{"business_area":"[]","name":"中国电力建设集团有限公司(紫竹院南路)","district":"海淀区","coordinates":[[116.31380847992114,39.93073206564501],[116.31381652526701,39.93022807085879],[116.31498588390293,39.930214848022],[116.3149858254449,39.93067982923494],[116.31494590629094,39.93075590217693],[116.3138563679194,39.930763973462945],[116.31380847992114,39.93073206564501]],"address":"车公庄西路22号海赋国际A座","cp":[116.31439917692174,39.930489953401086],"id":"B0FFFAH2Q4"},{"cp":[116.33141185415582,39.94918363830469],"name":"北京九五智驾信息技术股份有限公司","district":"海淀区","address":"西直门外上园村3号北京交通大学知行大厦9层","business_area":"西直门","id":"B000A9IQTT"},{"business_area":"[]","name":"中国长安汽车集团股份有限公司","district":"海淀区","coordinates":[[116.29272023715208,39.94740782183509],[116.29285514794371,39.94614165620188],[116.29312864217825,39.94615421691771],[116.29311164499472,39.946382235185375],[116.29423354510926,39.946459416123886],[116.29410665902876,39.94745058350613],[116.29403179595353,39.94747770422836],[116.29272023715208,39.94740782183509]],"address":"车道沟10号院","cp":[116.29297191967711,39.94624746485278],"id":"B0FFGBOGEY"},{"cp":[116.32240908002817,39.904992672601836],"name":"中国铁路总公司信访接待室","district":"海淀区","address":"会城门北蜂窝路1-3号附近","business_area":"[]","id":"B000A7X8HZ"},{"cp":[116.3632933540416,39.97001154487583],"name":"苏州宇达电通有限公司北京分公司","district":"海淀区","address":"北太平庄路25号北京豪威大厦501室","business_area":"牡丹园","id":"B000A7LXL7"},{"cp":[116.16595374528862,39.905570476722446],"name":"首钢集团","district":"石景山区","address":"石景山路68号","business_area":"[]","id":"B000A7QDZD"},{"business_area":"窦店","name":"长安汽车北京公司","district":"房山区","coordinates":[[116.09421610593657,39.65181509978311],[116.09424828466268,39.65055133556159],[116.09428185383831,39.64621514822722],[116.0948291825323,39.646174212394754],[116.09484024577787,39.6457282978654],[116.09719089103133,39.64519178904848],[116.10119636938026,39.64436714753198],[116.1027749664858,39.644094855753465],[116.10625495413181,39.64338679353596],[116.10674955061084,39.64344407785181],[116.10699683183167,39.64364319105781],[116.10698483644059,39.651389731841704],[116.10702771621234,39.6527615065939],[116.09477443311242,39.651823154447214],[116.09421610593657,39.65181509978311]],"address":"窦店镇普安路83号","cp":[116.10111878816483,39.648375362649226],"id":"B000AB96XB"},{"cp":[116.09398939436826,39.64852868937137],"name":"长安汽车北京公司(西南门)","district":"房山区","address":"窦庄路东50米","business_area":"窦店","id":"B0FFHWTEWQ"},{"business_area":"[]","name":"北京奔驰汽车有限公司","district":"大兴区","coordinates":[[116.50644522459304,39.75921150946413],[116.50607886839119,39.759260433496706],[116.50585304329037,39.75919377960172],[116.5057125397086,39.75906938108686],[116.50400161531381,39.75568371097787],[116.50273119073914,39.753189230159165],[116.50120184820801,39.750133035902955],[116.49925301147958,39.74622568179526],[116.49683046350634,39.741475005940885],[116.49602265542356,39.739492825761694],[116.49601263276709,39.73936881026932],[116.49613108534255,39.73932816831531],[116.49638905381242,39.7393779319211],[116.49907109163692,39.73998785004407],[116.500782485286,39.740265900941864],[116.50257015202025,39.740427174517144],[116.5082560931654,39.74099677054701],[116.5132630952082,39.74149808052939],[116.51345677667535,39.74155662240565],[116.51352200031914,39.74162279942269],[116.51290745787303,39.744540725383494],[116.51242240954774,39.747137055713296],[116.51232596809481,39.74792869337101],[116.51248747512136,39.74850708932762],[116.51279949477527,39.749282891231566],[116.51417706799046,39.75191750353364],[116.51568400554277,39.75493241077503],[116.51628695815046,39.75620395799175],[116.5162869420205,39.75633594406028],[116.51625482097248,39.75640984686966],[116.51616850871089,39.756500596961764],[116.50644522459304,39.75921150946413]],"address":"大兴经济技术开发区博兴路8号","cp":[116.50682891711656,39.748734746819764],"id":"B000A9I4FI"},{"cp":[116.50440529909608,39.754173058752826],"name":"北京奔驰汽车有限公司(1号门)","district":"大兴区","address":"经济技术开发区博兴路8号","business_area":"[]","id":"B0FFG731PZ"},{"cp":[116.5134619668262,39.78115159114008],"name":"中外运-敦豪国际航空快件有限公司","district":"大兴区","address":"北京经济技术开发区荣华南路18号","business_area":"亦庄","id":"B000A812N7"},{"cp":[116.52033238925554,39.79290160599328],"name":"北京新能源汽车股份有限公司(中国蓝谷)","district":"大兴区","address":"亦庄经济开发区东环中路5号","business_area":"[]","id":"B0FFI79GM8"},{"business_area":"亦庄","name":"中粮可口可乐饮料(北京)有限公司","district":"大兴区","coordinates":[[116.50962226303038,39.79670327739052],[116.51048050560715,39.795625837061],[116.51073947901224,39.7953196060953],[116.51077460843048,39.79529870864448],[116.51083081181864,39.795294870235466],[116.51090106707187,39.795281072909425],[116.51273956078909,39.79615525011276],[116.51427392593092,39.79688353245152],[116.51462915844485,39.79706951714851],[116.5146421968888,39.797131548746925],[116.51462913921277,39.79722650428804],[116.51389142034868,39.798118353003886],[116.51348191021822,39.798577158157705],[116.50962226303038,39.79670327739052]],"address":"北京经济技术开发区荣京东街9号","cp":[116.5121674221604,39.796907560214905],"id":"B000A295AF"},{"cp":[116.50994747656738,39.7964322371285],"name":"中粮可口可乐饮料(北京)有限公司(西南门)","district":"大兴区","address":"永昌北路与荣京东街交叉口西北200米","business_area":"亦庄","id":"B0FFFZCINI"},{"business_area":"[]","name":"广汽本田汽车有限公司北京商务中心","district":"大兴区","coordinates":[[116.34009403644129,39.69992471239328],[116.33760549513407,39.69952027915908],[116.33830138463587,39.696242490928725],[116.34003558881263,39.69652831438051],[116.34169002239308,39.696740332780784],[116.34115991796254,39.69859800098152],[116.34009403644129,39.69992471239328]],"address":"黄村镇小龙庄大庄桥东1000米","cp":[116.33954345882101,39.6980579746823],"id":"B000A8VXW9"},{"cp":[116.52167284387977,39.793330177368034],"name":"北京新能源营销公司(中国蓝谷)","district":"大兴区","address":"亦庄经济开发区东环中路5号","business_area":"亦庄","id":"B0FFIZTYHW"},{"cp":[116.52038556096593,39.7929677442618],"name":"北京新能源科技创新中心(中国蓝谷)","district":"大兴区","address":"亦庄经济开发区运成街","business_area":"亦庄","id":"B0FFIZX3Q9"},{"cp":[116.52033238925554,39.79290160599328],"name":"北京新能源汽车股份有限公司(中国蓝谷)","district":"大兴区","address":"亦庄经济开发区东环中路5号","business_area":"亦庄","id":"B0FFI79GM8"},{"business_area":"沙河","name":"北汽福田汽车股份有限公司","district":"昌平区","coordinates":[[116.24166863032745,40.12407477097493],[116.24595085084496,40.124087693452495],[116.24599085763296,40.124089689282265],[116.2459908534947,40.12412268630603],[116.24683498261527,40.12412658762645],[116.24683797435898,40.124195581003534],[116.24774207255842,40.12419944531895],[116.24776508882597,40.12408545175682],[116.24916815705477,40.12409717825339],[116.24922734866362,40.122575301748896],[116.25067531559375,40.12254794193485],[116.25069138018209,40.12202498410187],[116.25034839838433,40.12202707706676],[116.25035943462379,40.12173410019102],[116.24920545222585,40.1217473803733],[116.24921150220345,40.12134941433798],[116.24920365795523,40.12010652575971],[116.2471215211695,40.12011690517291],[116.24491613845757,40.12011712906205],[116.24250443770987,40.12011916273212],[116.24037357357302,40.12012100914781],[116.23951015772437,40.120124897762274],[116.23958508545749,40.12100083134879],[116.23969998026033,40.122294732618684],[116.23980697571136,40.122749706537356],[116.24008102678442,40.1233936840796],[116.24056620607827,40.12375070739029],[116.24109040670102,40.123974737066],[116.24166863032745,40.12407477097493]],"address":"沙阳路1号","cp":[116.24469284140314,40.12206796894067],"id":"B000A8UG7U"},{"cp":[116.31801656138914,39.83025412142998],"name":"福田汽车","district":"丰台区","address":"西南四环花乡桥东北角","business_area":"沙河","id":"B0FFITBUAK"},{"cp":[116.24632934456179,40.20027482862303],"name":"北京星天地信息科技有限公司","district":"昌平区","address":"昌平科技园区昌盛路18号CEC中国电子基地B1座","business_area":"城南","id":"B0FFHY0CL1"},{"cp":[116.67759580453274,40.09594835660697],"name":"北京燕京啤酒集团公司","district":"顺义区","address":"仁和双河路9号","business_area":"仁和","id":"B000A85Y99"},{"business_area":"[]","name":"北京索爱普天移动通信有限公司","district":"顺义区","coordinates":[[116.55246737191786,40.07419759274612],[116.55556847968074,40.07394770990854],[116.5553912757659,40.07288849717247],[116.55227310401865,40.073134329128415],[116.55246737191786,40.07419759274612]],"address":"天柱西路20号","cp":[116.55392336970277,40.07354207805382],"id":"B0FFGK1JUU"},{"cp":[116.55673261928425,40.07400652072816],"name":"北京索爱普天移动通信有限公司B1号楼","district":"顺义区","address":"天柱路","business_area":"[]","id":"B0FFHQ7S9D"},{"business_area":"仁和","name":"延锋海纳川汽车饰件系统有限公司","district":"顺义区","coordinates":[[116.6511788565012,40.08529635962572],[116.65113143791496,40.08164770014029],[116.65419700225898,40.08166201262135],[116.65481224452753,40.082054833069684],[116.65429827283124,40.08527757207827],[116.6511788565012,40.08529635962572]],"address":"林河工业开发区顺通路55号","cp":[116.65285349636753,40.08343339467657],"id":"B0FFH3QUVE"},{"business_area":"仁和","name":"北汽股份有限公司","district":"顺义区","coordinates":[[116.62428234958654,40.09875315435863],[116.62429366411938,40.09601634811212],[116.62874767617969,40.095916460309276],[116.62890832195308,40.096039227731445],[116.62888604685018,40.09865705979541],[116.62428234958654,40.09875315435863]],"address":"仁和双河大街99号","cp":[116.62659195623421,40.097335279048224],"id":"B0FFHXOR4W"},{"cp":[116.29789177190813,39.82437143347302],"name":"北汽集团财务公司","district":"丰台区","address":"新村街道汽车博物馆东路盈坤世纪G座18层","business_area":"仁和","id":"B0FFGOF9YJ"},{"cp":[116.5614070492743,40.085741451843774],"name":"宝马测试中心","district":"顺义区","address":"天柱东路3号天竺综合保税区竺园东路19","business_area":"[]","id":"B0FFJ2JN3F"},{"cp":[116.57002120412861,40.06160695473137],"name":"梅赛德斯-奔驰培训中心","district":"顺义区","address":"府右街3号天竺之星2层","business_area":"[]","id":"B000A8545W"},{"cp":[116.64555933917254,40.08168673521371],"name":"北京现代摩比斯汽车零部件有限公司(米各庄卫生服务站西北)","district":"顺义区","address":"仁和镇米各庄","business_area":"仁和","id":"B000A80TOB"},{"cp":[116.53625404967568,40.087653143421335],"name":"宝马集团北京研发中心","district":"顺义区","address":"安祥大街12号院7号楼","business_area":"后沙峪","id":"B0FFIRV1MC"},{"business_area":"仁和","name":"北京现代汽车有限公司","district":"顺义区","coordinates":[[116.64302870094927,40.10748420841692],[116.64305464592535,40.10739217132751],[116.64568976239465,40.10783354777192],[116.64591626270231,40.10706821031525],[116.64875067449499,40.107533105234666],[116.64866187222405,40.107861239012905],[116.64891618408035,40.10790177575545],[116.64892715940691,40.10786275906796],[116.6495803847828,40.1079775642134],[116.64959235740463,40.1079375456987],[116.65181526540535,40.10829244208233],[116.65191204526207,40.10792929303025],[116.65293222121804,40.10808738999575],[116.65346375296393,40.10809440031497],[116.65419414842445,40.10472430887698],[116.65453739695008,40.103099795364294],[116.65193459302853,40.103015645884234],[116.64388521727622,40.10168519336839],[116.64228960030796,40.107365482682994],[116.64302870094927,40.10748420841692]],"address":"通顺路18号","cp":[116.64840490139296,40.105115924738094],"id":"B0FFI5QSR9"},{"cp":[116.65183946446273,40.106153571120764],"name":"北京现代","district":"顺义区","address":"顺通路25号5幢","business_area":"仁和","id":"B0FFHPVQRX"},{"cp":[116.4998048212605,39.87045665840438],"name":"北京汽车用品有限公司","district":"朝阳区","address":"G1京哈高速与G1京哈高速入口交叉口西北150米","business_area":"[]","id":"B0FFI9DN6A"},{"business_area":"[]","name":"北京福田戴姆勒汽车有限公司(富乐大街)","district":"怀柔区","coordinates":[[116.6247881883427,40.34290927665859],[116.62483138048209,40.34068185842617],[116.62736927544502,40.340649535652254],[116.62879030052673,40.34067458112888],[116.62870120514008,40.34295705225044],[116.6247881883427,40.34290927665859]],"address":"红螺路21号","cp":[116.62678732708048,40.341796989147525],"id":"B000A9EU01"},{"cp":[116.63923561056252,40.345903156510346],"name":"北京福田戴姆勒汽车有限公司(东南门)","district":"怀柔区","address":"中刘路与富乐北街交叉口东北100米","business_area":"[]","id":"B0FFG8S1AN"}]}